[
  { "name": "Houston",              "slug": "houston-tx",              "county": "Harris",        "population": 2304580, "lat": 29.7604, "lng": -95.3698 },
  { "name": "San Antonio",          "slug": "san-antonio-tx",          "county": "Bexar",         "population": 1434625, "lat": 29.4241, "lng": -98.4936 },
  { "name": "Dallas",               "slug": "dallas-tx",               "county": "Dallas",        "population": 1304379, "lat": 32.7767, "lng": -96.7970 },
  { "name": "Austin",               "slug": "austin-tx",               "county": "Travis",        "population": 978908,  "lat": 30.2672, "lng": -97.7431 },
  { "name": "Fort Worth",           "slug": "fort-worth-tx",           "county": "Tarrant",       "population": 918915,  "lat": 32.7555, "lng": -97.3308 },
  { "name": "El Paso",              "slug": "el-paso-tx",              "county": "El Paso",       "population": 678815,  "lat": 31.7619, "lng": -106.4850 },
  { "name": "Arlington",            "slug": "arlington-tx",            "county": "Tarrant",       "population": 394266,  "lat": 32.7357, "lng": -97.1081 },
  { "name": "Corpus Christi",       "slug": "corpus-christi-tx",       "county": "Nueces",        "population": 317863,  "lat": 27.8006, "lng": -97.3964 },
  { "name": "Plano",                "slug": "plano-tx",                "county": "Collin",        "population": 285494,  "lat": 33.0198, "lng": -96.6989 },
  { "name": "Lubbock",              "slug": "lubbock-tx",              "county": "Lubbock",       "population": 257141,  "lat": 33.5779, "lng": -101.8552 },
  { "name": "Irving",               "slug": "irving-tx",               "county": "Dallas",        "population": 256684,  "lat": 32.8140, "lng": -96.9489 },
  { "name": "Laredo",               "slug": "laredo-tx",               "county": "Webb",          "population": 255205,  "lat": 27.5306, "lng": -99.4803 },
  { "name": "Garland",              "slug": "garland-tx",              "county": "Dallas",        "population": 246919,  "lat": 32.9126, "lng": -96.6389 },
  { "name": "Frisco",               "slug": "frisco-tx",               "county": "Collin",        "population": 200490,  "lat": 33.1507, "lng": -96.8236 },
  { "name": "Amarillo",             "slug": "amarillo-tx",             "county": "Potter",        "population": 200393,  "lat": 35.2220, "lng": -101.8313 },
  { "name": "Grand Prairie",        "slug": "grand-prairie-tx",        "county": "Dallas",        "population": 196100,  "lat": 32.7459, "lng": -96.9978 },
  { "name": "McKinney",             "slug": "mckinney-tx",             "county": "Collin",        "population": 195308,  "lat": 33.1972, "lng": -96.6398 },
  { "name": "Brownsville",          "slug": "brownsville-tx",          "county": "Cameron",       "population": 186738,  "lat": 25.9017, "lng": -97.4975 },
  { "name": "Killeen",              "slug": "killeen-tx",              "county": "Bell",          "population": 153095,  "lat": 31.1171, "lng": -97.7278 },
  { "name": "Pasadena",             "slug": "pasadena-tx",             "county": "Harris",        "population": 151950,  "lat": 29.6911, "lng": -95.2091 },
  { "name": "Mesquite",             "slug": "mesquite-tx",             "county": "Dallas",        "population": 150108,  "lat": 32.7668, "lng": -96.5992 },
  { "name": "McAllen",              "slug": "mcallen-tx",              "county": "Hidalgo",       "population": 142210,  "lat": 26.2034, "lng": -98.2300 },
  { "name": "Denton",               "slug": "denton-tx",               "county": "Denton",        "population": 139869,  "lat": 33.2148, "lng": -97.1331 },
  { "name": "Waco",                 "slug": "waco-tx",                 "county": "McLennan",      "population": 138183,  "lat": 31.5493, "lng": -97.1467 },
  { "name": "Carrollton",           "slug": "carrollton-tx",           "county": "Dallas",        "population": 133168,  "lat": 32.9537, "lng": -96.8903 },
  { "name": "Midland",              "slug": "midland-tx",              "county": "Midland",       "population": 132524,  "lat": 31.9973, "lng": -102.0779 },
  { "name": "Pearland",             "slug": "pearland-tx",             "county": "Brazoria",      "population": 125817,  "lat": 29.5638, "lng": -95.2861 },
  { "name": "Abilene",              "slug": "abilene-tx",              "county": "Taylor",        "population": 125182,  "lat": 32.4487, "lng": -99.7331 },
  { "name": "College Station",      "slug": "college-station-tx",      "county": "Brazos",        "population": 120019,  "lat": 30.6280, "lng": -96.3344 },
  { "name": "Richardson",           "slug": "richardson-tx",           "county": "Dallas",        "population": 119469,  "lat": 32.9483, "lng": -96.7299 },
  { "name": "Round Rock",           "slug": "round-rock-tx",           "county": "Williamson",    "population": 119468,  "lat": 30.5083, "lng": -97.6789 },
  { "name": "Odessa",               "slug": "odessa-tx",               "county": "Ector",         "population": 114428,  "lat": 31.8457, "lng": -102.3676 },
  { "name": "League City",          "slug": "league-city-tx",          "county": "Galveston",     "population": 114392,  "lat": 29.5075, "lng": -95.0949 },
  { "name": "Beaumont",             "slug": "beaumont-tx",             "county": "Jefferson",     "population": 112946,  "lat": 30.0802, "lng": -94.1266 },
  { "name": "Lewisville",           "slug": "lewisville-tx",           "county": "Denton",        "population": 111822,  "lat": 33.0462, "lng": -96.9942 },
  { "name": "Sugar Land",           "slug": "sugar-land-tx",           "county": "Fort Bend",     "population": 111026,  "lat": 29.5994, "lng": -95.6144 },
  { "name": "Allen",                "slug": "allen-tx",                "county": "Collin",        "population": 110722,  "lat": 33.1032, "lng": -96.6706 },
  { "name": "Tyler",                "slug": "tyler-tx",                "county": "Smith",         "population": 108249,  "lat": 32.3513, "lng": -95.3011 },
  { "name": "Wichita Falls",        "slug": "wichita-falls-tx",        "county": "Wichita",       "population": 102316,  "lat": 33.9137, "lng": -98.4934 },
  { "name": "Edinburg",             "slug": "edinburg-tx",             "county": "Hidalgo",       "population": 101170,  "lat": 26.3017, "lng": -98.1633 },
  { "name": "San Angelo",           "slug": "san-angelo-tx",           "county": "Tom Green",     "population": 99893,   "lat": 31.4638, "lng": -100.4370 },
  { "name": "Conroe",               "slug": "conroe-tx",               "county": "Montgomery",    "population": 98081,   "lat": 30.3119, "lng": -95.4560 },
  { "name": "New Braunfels",        "slug": "new-braunfels-tx",        "county": "Comal",         "population": 90209,   "lat": 29.7030, "lng": -98.1245 },
  { "name": "Atascocita",           "slug": "atascocita-tx",           "county": "Harris",        "population": 89979,   "lat": 29.9994, "lng": -95.1763 },
  { "name": "Bryan",                "slug": "bryan-tx",                "county": "Brazos",        "population": 86276,   "lat": 30.6744, "lng": -96.3698 },
  { "name": "Mission",              "slug": "mission-tx",              "county": "Hidalgo",       "population": 85798,   "lat": 26.2159, "lng": -98.3253 },
  { "name": "Baytown",              "slug": "baytown-tx",              "county": "Harris",        "population": 83701,   "lat": 29.7355, "lng": -94.9774 },
  { "name": "Temple",               "slug": "temple-tx",               "county": "Bell",          "population": 82073,   "lat": 31.0982, "lng": -97.3428 },
  { "name": "Longview",             "slug": "longview-tx",             "county": "Gregg",         "population": 81638,   "lat": 32.5007, "lng": -94.7405 },
  { "name": "Pharr",                "slug": "pharr-tx",                "county": "Hidalgo",       "population": 79112,   "lat": 26.1948, "lng": -98.1836 },
  { "name": "Flower Mound",         "slug": "flower-mound-tx",         "county": "Denton",        "population": 78854,   "lat": 33.0146, "lng": -97.0969 },
  { "name": "Cedar Park",           "slug": "cedar-park-tx",           "county": "Williamson",    "population": 77595,   "lat": 30.5052, "lng": -97.8203 },
  { "name": "Mansfield",            "slug": "mansfield-tx",            "county": "Tarrant",       "population": 76247,   "lat": 32.5632, "lng": -97.1417 },
  { "name": "Georgetown",           "slug": "georgetown-tx",           "county": "Williamson",    "population": 75420,   "lat": 30.6333, "lng": -97.6779 },
  { "name": "Missouri City",        "slug": "missouri-city-tx",        "county": "Fort Bend",     "population": 74259,   "lat": 29.6186, "lng": -95.5378 },
  { "name": "Harlingen",            "slug": "harlingen-tx",            "county": "Cameron",       "population": 71829,   "lat": 26.1906, "lng": -97.6961 },
  { "name": "North Richland Hills", "slug": "north-richland-hills-tx", "county": "Tarrant",       "population": 69204,   "lat": 32.8343, "lng": -97.2289 },
  { "name": "Rowlett",              "slug": "rowlett-tx",              "county": "Dallas",        "population": 67686,   "lat": 32.9029, "lng": -96.5639 },
  { "name": "San Marcos",           "slug": "san-marcos-tx",           "county": "Hays",          "population": 67553,   "lat": 29.8833, "lng": -97.9414 },
  { "name": "Leander",              "slug": "leander-tx",              "county": "Williamson",    "population": 67124,   "lat": 30.5788, "lng": -97.8531 },
  { "name": "Victoria",             "slug": "victoria-tx",             "county": "Victoria",      "population": 65534,   "lat": 28.8053, "lng": -97.0036 },
  { "name": "Pflugerville",         "slug": "pflugerville-tx",         "county": "Travis",        "population": 65191,   "lat": 30.4394, "lng": -97.6200 },
  { "name": "Spring",               "slug": "spring-tx",               "county": "Harris",        "population": 61519,   "lat": 30.0799, "lng": -95.4172 },
  { "name": "Euless",               "slug": "euless-tx",               "county": "Tarrant",       "population": 61032,   "lat": 32.8371, "lng": -97.0819 },
  { "name": "Wylie",                "slug": "wylie-tx",                "county": "Collin",        "population": 57526,   "lat": 33.0151, "lng": -96.5388 },
  { "name": "Kyle",                 "slug": "kyle-tx",                 "county": "Hays",          "population": 57470,   "lat": 29.9893, "lng": -97.8772 },
  { "name": "DeSoto",               "slug": "desoto-tx",               "county": "Dallas",        "population": 56141,   "lat": 32.5899, "lng": -96.8570 },
  { "name": "Port Arthur",          "slug": "port-arthur-tx",          "county": "Jefferson",     "population": 56039,   "lat": 29.8850, "lng": -93.9400 },
  { "name": "Galveston",            "slug": "galveston-tx",            "county": "Galveston",     "population": 53695,   "lat": 29.3013, "lng": -94.7977 },
  { "name": "Texas City",           "slug": "texas-city-tx",           "county": "Galveston",     "population": 51898,   "lat": 29.3838, "lng": -94.9027 },
  { "name": "Burleson",             "slug": "burleson-tx",             "county": "Johnson",       "population": 51618,   "lat": 32.5421, "lng": -97.3208 },
  { "name": "Grapevine",            "slug": "grapevine-tx",            "county": "Tarrant",       "population": 50722,   "lat": 32.9343, "lng": -97.0781 },
  { "name": "Little Elm",           "slug": "little-elm-tx",           "county": "Denton",        "population": 50453,   "lat": 33.1626, "lng": -96.9375 },
  { "name": "Cedar Hill",           "slug": "cedar-hill-tx",           "county": "Dallas",        "population": 49148,   "lat": 32.5885, "lng": -96.9561 },
  { "name": "Bedford",              "slug": "bedford-tx",              "county": "Tarrant",       "population": 48592,   "lat": 32.8440, "lng": -97.1431 },
  { "name": "Rockwall",             "slug": "rockwall-tx",             "county": "Rockwall",      "population": 47251,   "lat": 32.9312, "lng": -96.4597 },
  { "name": "Huntsville",           "slug": "huntsville-tx",           "county": "Walker",        "population": 45941,   "lat": 30.7235, "lng": -95.5508 },
  { "name": "Keller",               "slug": "keller-tx",               "county": "Tarrant",       "population": 45776,   "lat": 32.9346, "lng": -97.2289 },
  { "name": "Haltom City",          "slug": "haltom-city-tx",          "county": "Tarrant",       "population": 45034,   "lat": 32.7996, "lng": -97.2690 },
  { "name": "The Colony",           "slug": "the-colony-tx",           "county": "Denton",        "population": 44438,   "lat": 33.0807, "lng": -96.8864 },
  { "name": "Sherman",              "slug": "sherman-tx",              "county": "Grayson",       "population": 43645,   "lat": 33.6357, "lng": -96.6089 },
  { "name": "Coppell",              "slug": "coppell-tx",              "county": "Dallas",        "population": 42983,   "lat": 32.9546, "lng": -96.9900 },
  { "name": "Schertz",              "slug": "schertz-tx",              "county": "Guadalupe",     "population": 42002,   "lat": 29.6311, "lng": -98.2694 },
  { "name": "Lancaster",            "slug": "lancaster-tx",            "county": "Dallas",        "population": 41275,   "lat": 32.5921, "lng": -96.7561 },
  { "name": "Friendswood",          "slug": "friendswood-tx",          "county": "Galveston",     "population": 41213,   "lat": 29.5294, "lng": -95.2010 },
  { "name": "Duncanville",          "slug": "duncanville-tx",          "county": "Dallas",        "population": 40706,   "lat": 32.6518, "lng": -96.9083 },
  { "name": "Weslaco",              "slug": "weslaco-tx",              "county": "Hidalgo",       "population": 40588,   "lat": 26.1595, "lng": -97.9908 },
  { "name": "Hurst",                "slug": "hurst-tx",                "county": "Tarrant",       "population": 39337,   "lat": 32.8235, "lng": -97.1706 },
  { "name": "Texarkana",            "slug": "texarkana-tx",            "county": "Bowie",         "population": 36193,   "lat": 33.4251, "lng": -94.0477 },
  { "name": "Copperas Cove",        "slug": "copperas-cove-tx",        "county": "Coryell",       "population": 36158,   "lat": 31.1246, "lng": -97.9114 },
  { "name": "Socorro",              "slug": "socorro-tx",              "county": "El Paso",       "population": 35578,   "lat": 31.6540, "lng": -106.2872 },
  { "name": "La Porte",             "slug": "la-porte-tx",             "county": "Harris",        "population": 35124,   "lat": 29.6658, "lng": -95.0190 },
  { "name": "Del Rio",              "slug": "del-rio-tx",              "county": "Val Verde",     "population": 34673,   "lat": 29.3628, "lng": -100.8968 },
  { "name": "Lufkin",               "slug": "lufkin-tx",               "county": "Angelina",      "population": 34507,   "lat": 31.3382, "lng": -94.7291 },
  { "name": "Nacogdoches",          "slug": "nacogdoches-tx",          "county": "Nacogdoches",   "population": 32996,   "lat": 31.6035, "lng": -94.6555 },
  { "name": "Cleburne",             "slug": "cleburne-tx",             "county": "Johnson",       "population": 32662,   "lat": 32.3476, "lng": -97.3867 },
  { "name": "Seguin",               "slug": "seguin-tx",               "county": "Guadalupe",     "population": 31908,   "lat": 29.5688, "lng": -97.9647 },
  { "name": "Southlake",            "slug": "southlake-tx",            "county": "Tarrant",       "population": 31684,   "lat": 32.9412, "lng": -97.1342 },
  { "name": "Big Spring",           "slug": "big-spring-tx",           "county": "Howard",        "population": 26766,   "lat": 32.2504, "lng": -101.4787 },
  { "name": "Corsicana",            "slug": "corsicana-tx",            "county": "Navarro",       "population": 25109,   "lat": 32.0954, "lng": -96.4688 }
]
